{
 "type": "FeatureCollection",
 "features": [
  {
   "type": "Feature",
   "geometry": {
    "type": "Point",
    "coordinates": [
     -73.5459797,
     41.0531907
    ]
   },
   "properties": {
    "name": "Mill River Park",
    "town": "Stamford",
    "color": "#e3c47e"
   }
  },
  {
   "type": "Feature",
   "geometry": {
    "type": "Point",
    "coordinates": [
     -73.5480494,
     41.0633675
    ]
   },
   "properties": {
    "name": "Scalzi Park",
    "town": "Stamford",
    "color": "#e3c47e"
   }
  },
  {
   "type": "Feature",
   "geometry": {
    "type": "Point",
    "coordinates": [
     -73.503641,
     41.0462517
    ]
   },
   "properties": {
    "name": "Cove Island Park",
    "town": "Stamford",
    "color": "#e3c47e"
   }
  },
  {
   "type": "Feature",
   "geometry": {
    "type": "Point",
    "coordinates": [
     -73.5192038,
     41.0422204
    ]
   },
   "properties": {
    "name": "Cummings Park",
    "town": "Stamford",
    "color": "#e3c47e"
   }
  },
  {
   "type": "Feature",
   "geometry": {
    "type": "Point",
    "coordinates": [
     -73.5384532,
     41.0348138
    ]
   },
   "properties": {
    "name": "Kosciuszko Park",
    "town": "Stamford",
    "color": "#e3c47e"
   }
  },
  {
   "type": "Feature",
   "geometry": {
    "type": "Point",
    "coordinates": [
     -73.5241662,
     41.0395669
    ]
   },
   "properties": {
    "name": "West Beach Park",
    "town": "Stamford",
    "color": "#e3c47e"
   }
  },
  {
   "type": "Feature",
   "geometry": {
    "type": "Point",
    "coordinates": [
     -73.5902545,
     41.0858539
    ]
   },
   "properties": {
    "name": "Mianus River Park",
    "town": "Stamford",
    "color": "#e3c47e"
   }
  },
  {
   "type": "Feature",
   "geometry": {
    "type": "Point",
    "coordinates": [
     -73.5521733,
     41.1347213
    ]
   },
   "properties": {
    "name": "Bartlett Arboretum",
    "town": "Stamford",
    "color": "#e3c47e"
   }
  },
  {
   "type": "Feature",
   "geometry": {
    "type": "Point",
    "coordinates": [
     -73.540734,
     41.0414926
    ]
   },
   "properties": {
    "name": "Harbor Point",
    "town": "Stamford",
    "color": "#e3c47e"
   }
  },
  {
   "type": "Feature",
   "geometry": {
    "type": "Point",
    "coordinates": [
     -73.6120477,
     41.0230141
    ]
   },
   "properties": {
    "name": "Bruce Park",
    "town": "Greenwich",
    "color": "#7ad0ff"
   }
  },
  {
   "type": "Feature",
   "geometry": {
    "type": "Point",
    "coordinates": [
     -73.5708128,
     41.0352157
    ]
   },
   "properties": {
    "name": "Binney Park",
    "town": "Old Greenwich",
    "color": "#7ad0ff"
   }
  },
  {
   "type": "Feature",
   "geometry": {
    "type": "Point",
    "coordinates": [
     -73.6201261,
     41.0187084
    ]
   },
   "properties": {
    "name": "Bruce Museum",
    "town": "Greenwich",
    "color": "#7ad0ff"
   }
  },
  {
   "type": "Feature",
   "geometry": {
    "type": "Point",
    "coordinates": [
     -73.3929803,
     41.0846383
    ]
   },
   "properties": {
    "name": "Calf Pasture Beach",
    "town": "Norwalk",
    "color": "#7af0a6"
   }
  },
  {
   "type": "Feature",
   "geometry": {
    "type": "Point",
    "coordinates": [
     -73.4161785,
     41.1087363
    ]
   },
   "properties": {
    "name": "Mathews Park",
    "town": "Norwalk",
    "color": "#7af0a6"
   }
  },
  {
   "type": "Feature",
   "geometry": {
    "type": "Point",
    "coordinates": [
     -73.4028914,
     41.1639206
    ]
   },
   "properties": {
    "name": "Cranbury Park",
    "town": "Norwalk",
    "color": "#7af0a6"
   }
  },
  {
   "type": "Feature",
   "geometry": {
    "type": "Point",
    "coordinates": [
     -73.4102215,
     41.0978219
    ]
   },
   "properties": {
    "name": "Veterans Memorial Park",
    "town": "Norwalk",
    "color": "#7af0a6"
   }
  },
  {
   "type": "Feature",
   "geometry": {
    "type": "Point",
    "coordinates": [
     -73.4149764,
     41.1060155
    ]
   },
   "properties": {
    "name": "Oyster Shell Park",
    "town": "Norwalk",
    "color": "#7af0a6"
   }
  }
 ]
}